[
{"id_community":"1","community_name":"24 DE MAYO","wave":"","longitude":"-77.5349346063729","latitude":"-1.96148321612637","country":"Ecuador"},
{"id_community":"2","community_name":"ACHUAR","wave":"3","longitude":"-77.46816217","latitude":"-2.02250353","country":"Ecuador"},
{"id_community":"3","community_name":"ALTO CORRIENTES","wave":"","longitude":"-77.0105765994398","latitude":"-1.89228479802397","country":"Ecuador"},
{"id_community":"4","community_name":"AMBATO","wave":"","longitude":"-78.62380609","latitude":"-1.25501252","country":"Ecuador"},
{"id_community":"5","community_name":"ANAK","wave":"2","longitude":"-77.46607734","latitude":"-2.094563","country":"Ecuador"},
{"id_community":"6","community_name":"ANKUASH (SAN PEDRO)","wave":"1","longitude":"-77.6838499999999","latitude":"-2.02433333299996","country":"Ecuador"},
{"id_community":"7","community_name":"ARUTAM","wave":"3","longitude":"-77.35890901","latitude":"-2.42890899","country":"Ecuador"},
{"id_community":"8","community_name":"BUFEO","wave":"","longitude":"-76.7825479260932","latitude":"-2.19056481632298","country":"Ecuador"},
{"id_community":"9","community_name":"CAMPO AYUY","wave":"","longitude":"-77.5591591835825","latitude":"-2.08776677181346","country":"Ecuador"},
{"id_community":"10","community_name":"CENTRO TINTIUNKENTZA","wave":"","longitude":"-77.3932314162728","latitude":"-2.51958222230748","country":"Ecuador"},
{"id_community":"11","community_name":"CENTRO WAMPINTS","wave":"","longitude":"-77.9567560411788","latitude":"-2.88512282823384","country":"Ecuador"},
{"id_community":"12","community_name":"CHAMIK","wave":"","longitude":"-77.6670855896356","latitude":"-2.1464724294272","country":"Ecuador"},
{"id_community":"13","community_name":"CHAPINTSA","wave":"2","longitude":"-77.71504099","latitude":"-1.98932896000001","country":"Ecuador"},
{"id_community":"14","community_name":"CHARAPACOCHA","wave":"1","longitude":"-77.08853333","latitude":"-2.32389999999999","country":"Ecuador"},
{"id_community":"15","community_name":"CHICHIRAT","wave":"2","longitude":"-76.65683099","latitude":"-2.38315998","country":"Ecuador"},
{"id_community":"16","community_name":"CHICO COPATAZA","wave":"3","longitude":"-77.7804259837852","latitude":"-1.73269034713674","country":"Ecuador"},
{"id_community":"17","community_name":"CHINKIANENTSA","wave":"","longitude":"-77.3110603297525","latitude":"-2.36557300932212","country":"Ecuador"},
{"id_community":"18","community_name":"CHUMPI (ACHUAR)","wave":"3","longitude":"-77.4560602386454","latitude":"-2.0934528008041","country":"Ecuador"},
{"id_community":"19","community_name":"CHUWITAYU","wave":"","longitude":"-77.8081816592896","latitude":"-1.90693453873664","country":"Ecuador"},
{"id_community":"20","community_name":"COLONIA LA LIBERTAD","wave":"3","longitude":"-77.39199297","latitude":"-2.42337802","country":"Ecuador"},
{"id_community":"21","community_name":"COPATAZA","wave":"2","longitude":"-77.44737212","latitude":"-2.08848135","country":"Ecuador"},
{"id_community":"22","community_name":"CUENCA","wave":"","longitude":"-78.99833413","latitude":"-2.88868149","country":"Ecuador"},
{"id_community":"23","community_name":"EL VERGEL","wave":"","longitude":"-77.798625606202","latitude":"-1.69486330542227","country":"Ecuador"},
{"id_community":"24","community_name":"GUARANI","wave":"2","longitude":"-77.2436114","latitude":"-2.23268453","country":"Ecuador"},
{"id_community":"25","community_name":"GUAYAQUIL","wave":"","longitude":"-79.94170284","latitude":"-2.14758605","country":"Ecuador"},
{"id_community":"26","community_name":"IKIAM","wave":"2","longitude":"-77.13787101","latitude":"-2.69764001","country":"Ecuador"},
{"id_community":"27","community_name":"INIAK","wave":"","longitude":"-76.6150971753429","latitude":"-2.27778237989576","country":"Ecuador"},
{"id_community":"28","community_name":"INIAYUA","wave":"","longitude":"-77.476414626016","latitude":"-2.14953536209382","country":"Ecuador"},
{"id_community":"29","community_name":"IPIAK","wave":"3","longitude":"-77.14579007","latitude":"-2.46783011","country":"Ecuador"},
{"id_community":"30","community_name":"ISHPINGO","wave":"1","longitude":"-76.7619759371209","latitude":"-2.56938108216932","country":"Ecuador"},
{"id_community":"31","community_name":"ITAK","wave":"3","longitude":"-77.19756257","latitude":"-2.54545106000001","country":"Ecuador"},
{"id_community":"32","community_name":"IWIA","wave":"2","longitude":"-77.477686730086","latitude":"-2.09898064839204","country":"Ecuador"},
{"id_community":"33","community_name":"JIKIAMAT","wave":"3","longitude":"-77.1828338786697","latitude":"-2.56375974662308","country":"Ecuador"},
{"id_community":"34","community_name":"JUYUKAMENTSA","wave":"3","longitude":"-77.2436015509404","latitude":"-2.72119412155319","country":"Ecuador"},
{"id_community":"35","community_name":"KAASHAP","wave":"3","longitude":"-77.13021649","latitude":"-2.32470777000001","country":"Ecuador"},
{"id_community":"36","community_name":"KAIPTACH","wave":"3","longitude":"-77.1222136940418","latitude":"-2.63903517059668","country":"Ecuador"},
{"id_community":"37","community_name":"KAJEKAI","wave":"","longitude":"-77.7303203789547","latitude":"-1.97285220168765","country":"Ecuador"},
{"id_community":"38","community_name":"KANUS","wave":"","longitude":"-77.7355","latitude":"-2.48916666666667","country":"Ecuador"},
{"id_community":"39","community_name":"KAPAWARI","wave":"2","longitude":"-77.17530342","latitude":"-2.06630107","country":"Ecuador"},
{"id_community":"40","community_name":"KAPAWI","wave":"1","longitude":"-76.84185","latitude":"-2.54064999999997","country":"Ecuador"},
{"id_community":"41","community_name":"KAPIRNA","wave":"3","longitude":"-76.81431723","latitude":"-2.21959467999999","country":"Ecuador"},
{"id_community":"42","community_name":"KARAMA","wave":"3","longitude":"-77.55169496","latitude":"-2.042243","country":"Ecuador"},
{"id_community":"43","community_name":"KASUZENTSA","wave":"3","longitude":"-76.72609904","latitude":"-2.30532403000001","country":"Ecuador"},
{"id_community":"44","community_name":"KAWA","wave":"2","longitude":"-77.67043283","latitude":"-2.00235964000001","country":"Ecuador"},
{"id_community":"45","community_name":"KAYANTZA","wave":"","longitude":"-77.3596458629197","latitude":"-2.16969410757618","country":"Ecuador"},
{"id_community":"46","community_name":"KUAKASH","wave":"2","longitude":"-77.67144528","latitude":"-2.03447892","country":"Ecuador"},
{"id_community":"47","community_name":"KUMAY","wave":"1","longitude":"-77.70317112","latitude":"-2.00016894","country":"Ecuador"},
{"id_community":"48","community_name":"KUNKI","wave":"3","longitude":"-77.6199197032204","latitude":"-2.03145847500425","country":"Ecuador"},
{"id_community":"49","community_name":"KURINTSA (ACHUAR)","wave":"3","longitude":"-77.3683471017231","latitude":"-2.40095112374534","country":"Ecuador"},
{"id_community":"50","community_name":"KURINUA","wave":"","longitude":"-77.371027915105","latitude":"-2.6880543924441","country":"Ecuador"},
{"id_community":"51","community_name":"KUSERVANTS","wave":"2","longitude":"-76.9293024289112","latitude":"-2.61180973690133","country":"Ecuador"},
{"id_community":"52","community_name":"KUSUTKAU","wave":"2","longitude":"-76.8611135195205","latitude":"-2.53117104796497","country":"Ecuador"},
{"id_community":"53","community_name":"MACAS","wave":"","longitude":"-78.1215367399999","latitude":"-2.31136608","country":"Ecuador"},
{"id_community":"54","community_name":"MAKI","wave":"","longitude":"-77.1597537643122","latitude":"-2.75532806993159","country":"Ecuador"},
{"id_community":"55","community_name":"MAKUMA","wave":"","longitude":"-77.7003333333333","latitude":"-2.753","country":"Ecuador"},
{"id_community":"56","community_name":"MAKUSAR","wave":"","longitude":"-76.6296053863595","latitude":"-2.24776042131674","country":"Ecuador"},
{"id_community":"57","community_name":"MAMAYAK","wave":"","longitude":"-77.7055836667998","latitude":"-2.03434142121718","country":"Ecuador"},
{"id_community":"58","community_name":"MASHIANTENTZA CENTRO SHUAR","wave":"","longitude":"-77.4070501413976","latitude":"-2.36471442213674","country":"Ecuador"},
{"id_community":"59","community_name":"MASHIENT","wave":"","longitude":"-77.2611940327785","latitude":"-2.1910341946851","country":"Ecuador"},
{"id_community":"60","community_name":"MASHUIM","wave":"2","longitude":"-76.9161980358354","latitude":"-2.61617382710233","country":"Ecuador"},
{"id_community":"61","community_name":"MASHUMAR ENTSA","wave":"","longitude":"-77.2192804448438","latitude":"-2.76265062894994","country":"Ecuador"},
{"id_community":"62","community_name":"MASHURASH","wave":"","longitude":"-77.207474708832","latitude":"-2.26004792143706","country":"Ecuador"},
{"id_community":"63","community_name":"MONTALVO","wave":"","longitude":"-76.964085","latitude":"-2.0614","country":"Ecuador"},
{"id_community":"64","community_name":"MORETE PLAYA","wave":"","longitude":"-76.8647439284813","latitude":"-2.18573356532196","country":"Ecuador"},
{"id_community":"65","community_name":"MUITSENTSA","wave":"2","longitude":"-77.06005954","latitude":"-2.35485588","country":"Ecuador"},
{"id_community":"66","community_name":"MURUNTS","wave":"","longitude":"-77.2407472047014","latitude":"-2.53880337807884","country":"Ecuador"},
{"id_community":"67","community_name":"MUSHUCLLACTA","wave":"2","longitude":"-77.84526701","latitude":"-1.71900404","country":"Ecuador"},
{"id_community":"68","community_name":"NAMAK","wave":"","longitude":"-77.5058228139738","latitude":"-1.9813391707262","country":"Ecuador"},
{"id_community":"69","community_name":"NANKI","wave":"3","longitude":"-77.61254037","latitude":"-2.00738056999999","country":"Ecuador"},
{"id_community":"70","community_name":"NAPURAK","wave":"1","longitude":"-76.9924","latitude":"-2.52038333299992","country":"Ecuador"},
{"id_community":"71","community_name":"NASES","wave":"2","longitude":"-77.17227294","latitude":"-2.55857385000001","country":"Ecuador"},
{"id_community":"72","community_name":"NUEVO SASAIM","wave":"2","longitude":"-77.33200117","latitude":"-2.26116775","country":"Ecuador"},
{"id_community":"73","community_name":"NUMBAIMI","wave":"3","longitude":"-77.22248448","latitude":"-2.24400302999999","country":"Ecuador"},
{"id_community":"74","community_name":"NUNKUI (NUNKA)","wave":"","longitude":"-77.4056118119677","latitude":"-2.6621148360154","country":"Ecuador"},
{"id_community":"75","community_name":"PAKINTS","wave":"3","longitude":"-77.27474598","latitude":"-2.32275100999999","country":"Ecuador"},
{"id_community":"76","community_name":"PALORA","wave":"","longitude":"-77.968159","latitude":"-1.698946","country":"Ecuador"},
{"id_community":"77","community_name":"PAMPANTS","wave":"","longitude":"-77.4413543640552","latitude":"-2.55411502355448","country":"Ecuador"},
{"id_community":"78","community_name":"PANKI","wave":"3","longitude":"-77.65756602","latitude":"-1.99913001","country":"Ecuador"},
{"id_community":"79","community_name":"PATUKMAI","wave":"3","longitude":"-77.20165897","latitude":"-2.47977046","country":"Ecuador"},
{"id_community":"80","community_name":"PEAS","wave":"","longitude":"-77.8763500770022","latitude":"-1.74421608228234","country":"Ecuador"},
{"id_community":"81","community_name":"PRECOOPERATIVA SUCRE","wave":"","longitude":"-77.805687764502","latitude":"-1.74802148241646","country":"Ecuador"},
{"id_community":"82","community_name":"PUKUAN","wave":"3","longitude":"-77.15527645","latitude":"-2.10142644","country":"Ecuador"},
{"id_community":"83","community_name":"PUMPUENTSA","wave":"2","longitude":"-77.33268731","latitude":"-2.47424285000001","country":"Ecuador"},
{"id_community":"84","community_name":"PUTUIM","wave":"3","longitude":"-77.12031185","latitude":"-2.54783218999999","country":"Ecuador"},
{"id_community":"85","community_name":"PUTUNTS","wave":"","longitude":"-77.4206123575302","latitude":"-2.59745925978759","country":"Ecuador"},
{"id_community":"86","community_name":"PUYO CENTRO","wave":"","longitude":"-78.0023017","latitude":"-1.4877774","country":"Ecuador"},
{"id_community":"87","community_name":"QUILLOALPA","wave":"","longitude":"-76.988123605509","latitude":"-1.40544582021898","country":"Ecuador"},
{"id_community":"88","community_name":"QUITO","wave":"","longitude":"-78.513152","latitude":"-0.214902","country":"Ecuador"},
{"id_community":"89","community_name":"SAAPAP ENTSA","wave":"","longitude":"-77.3493808961617","latitude":"-2.82621764754001","country":"Ecuador"},
{"id_community":"90","community_name":"SAN ANTONIO","wave":"","longitude":"-77.4201901261654","latitude":"-2.42143671000297","country":"Ecuador"},
{"id_community":"91","community_name":"SAN CARLOS","wave":"","longitude":"-77.4958827443228","latitude":"-2.09225933757938","country":"Ecuador"},
{"id_community":"92","community_name":"SAN FRANCISCO","wave":"","longitude":"-77.5846054648341","latitude":"-2.07903298784921","country":"Ecuador"},
{"id_community":"93","community_name":"SAN JOSE","wave":"2","longitude":"-77.6194832942003","latitude":"-2.02273029460225","country":"Ecuador"},
{"id_community":"94","community_name":"SAN JUAN","wave":"3","longitude":"-77.5137683850559","latitude":"-2.08529279421702","country":"Ecuador"},
{"id_community":"95","community_name":"SAN LUIS","wave":"3","longitude":"-77.45250662","latitude":"-2.08620382","country":"Ecuador"},
{"id_community":"96","community_name":"SANTA ROSA","wave":"3","longitude":"-77.58093674","latitude":"-2.06181675","country":"Ecuador"},
{"id_community":"97","community_name":"SANTIAG","wave":"","longitude":"-77.397535","latitude":"-2.115111","country":"Ecuador"},
{"id_community":"98","community_name":"SANTO DOMINGO DE LOS COLORADOS","wave":"","longitude":"-79.17987316","latitude":"-0.25784701","country":"Ecuador"},
{"id_community":"99","community_name":"SANTO TOMAS","wave":"","longitude":"-77.0082332281618","latitude":"-2.05572281962303","country":"Ecuador"},
{"id_community":"100","community_name":"SAUM","wave":"2","longitude":"-77.08806214","latitude":"-2.69377177","country":"Ecuador"},
{"id_community":"101","community_name":"SAWASTIAB (SAN SEBASTIAN)","wave":"3","longitude":"-77.15913104","latitude":"-2.64180497","country":"Ecuador"},
{"id_community":"102","community_name":"SHAIMI","wave":"","longitude":"-77.5052945897652","latitude":"-1.91639723005705","country":"Ecuador"},
{"id_community":"103","community_name":"SHAKAP","wave":"3","longitude":"-77.72763857","latitude":"-1.98022663999999","country":"Ecuador"},
{"id_community":"104","community_name":"SHARAMENTZA","wave":"1","longitude":"-76.99683333","latitude":"-2.45953333299997","country":"Ecuador"},
{"id_community":"105","community_name":"SHAUK","wave":"3","longitude":"-77.64005003","latitude":"-1.97801598999999","country":"Ecuador"},
{"id_community":"106","community_name":"SHELL CENTRO","wave":"","longitude":"-78.0652722","latitude":"-1.4978294","country":"Ecuador"},
{"id_community":"107","community_name":"SHUIM MAMUS","wave":"2","longitude":"-77.03978154","latitude":"-2.46379991999999","country":"Ecuador"},
{"id_community":"108","community_name":"SITUCH","wave":"","longitude":"-77.2836441879197","latitude":"-2.79478835447533","country":"Ecuador"},
{"id_community":"109","community_name":"SUCUA RURAL","wave":"","longitude":"-78.1647105869222","latitude":"-2.45098312448008","country":"Ecuador"},
{"id_community":"110","community_name":"SURIK NUEVO","wave":"3","longitude":"-77.08823397","latitude":"-2.59891402000001","country":"Ecuador"},
{"id_community":"111","community_name":"SURITIAK","wave":"3","longitude":"-77.19096752","latitude":"-2.56236288999999","country":"Ecuador"},
{"id_community":"112","community_name":"SUWA","wave":"2","longitude":"-76.92687638","latitude":"-2.54345758999999","country":"Ecuador"},
{"id_community":"113","community_name":"TAISHA","wave":"","longitude":"-77.5049536098591","latitude":"-2.36862613774187","country":"Ecuador"},
{"id_community":"114","community_name":"TARIMIAT","wave":"3","longitude":"-77.56149047","latitude":"-2.06541259000001","country":"Ecuador"},
{"id_community":"115","community_name":"TASHAP","wave":"3","longitude":"-77.879335","latitude":"-1.72374618","country":"Ecuador"},
{"id_community":"116","community_name":"TEQUERICA SURAKA","wave":"","longitude":"-76.5234274213898","latitude":"-1.96745202060887","country":"Ecuador"},
{"id_community":"117","community_name":"TERESA MAMA","wave":"","longitude":"-77.2163126175169","latitude":"-1.90931847819147","country":"Ecuador"},
{"id_community":"118","community_name":"TINCHI","wave":"","longitude":"-77.5103326617316","latitude":"-2.10039201423052","country":"Ecuador"},
{"id_community":"119","community_name":"TINKIAS","wave":"3","longitude":"-76.63657679","latitude":"-2.46843201","country":"Ecuador"},
{"id_community":"120","community_name":"TRES MARIAS","wave":"","longitude":"-77.5468832402496","latitude":"-2.09611676363012","country":"Ecuador"},
{"id_community":"121","community_name":"TSEKUNTSA","wave":"2","longitude":"-76.9469891166981","latitude":"-2.4019939780152","country":"Ecuador"},
{"id_community":"122","community_name":"TSEMPUNTSA","wave":"1","longitude":"-77.12018333","latitude":"-2.30246666699998","country":"Ecuador"},
{"id_community":"123","community_name":"TSUNKINTZA","wave":"3","longitude":"-77.11055053","latitude":"-2.66289249999999","country":"Ecuador"},
{"id_community":"124","community_name":"TUKUPI","wave":"","longitude":"-77.4808178099149","latitude":"-2.78899256791074","country":"Ecuador"},
{"id_community":"125","community_name":"TUNA","wave":"3","longitude":"-77.65054794","latitude":"-2.04620638","country":"Ecuador"},
{"id_community":"126","community_name":"TUNIKRAM","wave":"2","longitude":"-76.81569354","latitude":"-2.63365021999999","country":"Ecuador"},
{"id_community":"127","community_name":"TUUTINENTZA RURAL","wave":"","longitude":"-77.468087104506","latitude":"-2.53781706165682","country":"Ecuador"},
{"id_community":"128","community_name":"UNTPASTATS","wave":"","longitude":"-77.7669020612646","latitude":"-1.96977765302413","country":"Ecuador"},
{"id_community":"129","community_name":"UWIJINT","wave":"","longitude":"-77.7699968918439","latitude":"-1.79956660495435","country":"Ecuador"},
{"id_community":"130","community_name":"VILLAFLORA","wave":"","longitude":"-77.7484358541518","latitude":"-1.73829361232619","country":"Ecuador"},
{"id_community":"131","community_name":"WACHANCE COCHA (FIDEL HUALINO)","wave":"","longitude":"-77.7646753338179","latitude":"-1.73158220716394","country":"Ecuador"},
{"id_community":"132","community_name":"WACHIRPAS","wave":"1","longitude":"-76.80619047","latitude":"-2.57320446","country":"Ecuador"},
{"id_community":"133","community_name":"WAMPUIK","wave":"2","longitude":"-77.02301488","latitude":"-2.61508615000001","country":"Ecuador"},
{"id_community":"134","community_name":"WARINTZA","wave":"","longitude":"-78.2559566602231","latitude":"-3.16998805035218","country":"Ecuador"},
{"id_community":"135","community_name":"WASAKENTSA","wave":"2","longitude":"-77.21918444","latitude":"-2.54522516","country":"Ecuador"},
{"id_community":"136","community_name":"WASHINTSA","wave":"3","longitude":"-77.56321597","latitude":"-2.03907799","country":"Ecuador"},
{"id_community":"137","community_name":"WASURAK","wave":"","longitude":"-77.3530425627855","latitude":"-2.57800659370112","country":"Ecuador"},
{"id_community":"138","community_name":"WAWAIM","wave":"","longitude":"-77.982848780857","latitude":"-2.85471385649706","country":"Ecuador"},
{"id_community":"139","community_name":"WAYUTSENTSA","wave":"1","longitude":"-76.91728333","latitude":"-2.44161666699995","country":"Ecuador"},
{"id_community":"140","community_name":"WICHIM","wave":"","longitude":"-77.3706880329431","latitude":"-2.74494684706925","country":"Ecuador"},
{"id_community":"141","community_name":"WISUI (ACHUAR)","wave":"3","longitude":"-77.49253339","latitude":"-2.08792848000001","country":"Ecuador"},
{"id_community":"142","community_name":"YAAS-NUNKA","wave":"3","longitude":"-77.3985104336099","latitude":"-2.65393978735167","country":"Ecuador"},
{"id_community":"143","community_name":"YAMANUNKA","wave":"","longitude":"-77.4291197833919","latitude":"-2.6368430865403","country":"Ecuador"},
{"id_community":"144","community_name":"YAMARAN","wave":"","longitude":"-77.5374085350008","latitude":"-2.22017735185584","country":"Ecuador"},
{"id_community":"145","community_name":"YAMPIS","wave":"","longitude":"-77.5231599671675","latitude":"-1.96905388364201","country":"Ecuador"},
{"id_community":"146","community_name":"YAMPUNA NORTE","wave":"","longitude":"-77.5189081017511","latitude":"-2.12233431546469","country":"Ecuador"},
{"id_community":"147","community_name":"YANKUNTS","wave":"2","longitude":"-77.31107994","latitude":"-2.68203257999999","country":"Ecuador"},
{"id_community":"148","community_name":"YANTANA","wave":"","longitude":"-77.8341020633795","latitude":"-1.77391800598405","country":"Ecuador"},
{"id_community":"149","community_name":"YUTSUNTSA","wave":"","longitude":"-76.4717906414676","latitude":"-2.34674459940634","country":"Ecuador"},
{"id_community":"150","community_name":"YUU","wave":"","longitude":"-78.2732466490143","latitude":"-2.65545907503501","country":"Ecuador"},
{"id_community":"151","community_name":"CHURUS","wave":"","longitude":"-76.43374","latitude":"-2.832521","country":"Peru"},
{"id_community":"152","community_name":"WAMPINTSA","wave":"","longitude":"-76.95695","latitude":"-3.01432","country":"Peru"},
{"id_community":"153","community_name":"RUBINA","wave":"","longitude":"-76.55816","latitude":"-3.356862","country":"Peru"}
]
