[
{"id_community":"1","community_name":"24 DE MAYO","wave":"","longitude":"-77.5349346063729","latitude":"-1.96148321612637","country":"Ecuador"},
{"id_community":"2","community_name":"ACHUAR","wave":"3","longitude":"-77.46816217","latitude":"-2.02250353","country":"Ecuador"},
{"id_community":"3","community_name":"ALTO CORRIENTES","wave":"","longitude":"-77.0105765994398","latitude":"-1.89228479802397","country":"Ecuador"},
{"id_community":"4","community_name":"AMBATO","wave":"","longitude":"-78.62380609","latitude":"-1.25501252","country":"Ecuador"},
{"id_community":"5","community_name":"ANAK","wave":"2","longitude":"-77.46607734","latitude":"-2.094563","country":"Ecuador"},
{"id_community":"6","community_name":"ANKUASH (SAN PEDRO)","wave":"1","longitude":"-77.6838499999999","latitude":"-2.02433333299996","country":"Ecuador"},
{"id_community":"7","community_name":"ARUTAM","wave":"3","longitude":"-77.35890901","latitude":"-2.42890899","country":"Ecuador"},
{"id_community":"8","community_name":"BUFEO","wave":"","longitude":"-76.7825479260932","latitude":"-2.19056481632298","country":"Ecuador"},
{"id_community":"9","community_name":"CAMPO AYUY","wave":"","longitude":"-77.5591591835825","latitude":"-2.08776677181346","country":"Ecuador"},
{"id_community":"10","community_name":"CENTRO TINTIUNKENTZA","wave":"","longitude":"-77.3932314162728","latitude":"-2.51958222230748","country":"Ecuador"},
{"id_community":"11","community_name":"CENTRO WAMPINTS","wave":"","longitude":"-77.9567560411788","latitude":"-2.88512282823384","country":"Ecuador"},
{"id_community":"12","community_name":"CHAMIK","wave":"","longitude":"-77.6670855896356","latitude":"-2.1464724294272","country":"Ecuador"},
{"id_community":"13","community_name":"CHAPINTSA","wave":"2","longitude":"-77.71504099","latitude":"-1.98932896000001","country":"Ecuador"},
{"id_community":"14","community_name":"CHARAPACOCHA","wave":"1","longitude":"-77.08853333","latitude":"-2.32389999999999","country":"Ecuador"},
{"id_community":"15","community_name":"CHICHIRAT","wave":"2","longitude":"-76.65683099","latitude":"-2.38315998","country":"Ecuador"},
{"id_community":"16","community_name":"CHICO COPATAZA","wave":"3","longitude":"-77.7804259837852","latitude":"-1.73269034713674","country":"Ecuador"},
{"id_community":"17","community_name":"CHINKIANENTSA","wave":"","longitude":"-77.3110603297525","latitude":"-2.36557300932212","country":"Ecuador"},
{"id_community":"18","community_name":"CHUMPI (ACHUAR)","wave":"3","longitude":"-77.4560602386454","latitude":"-2.0934528008041","country":"Ecuador"},
{"id_community":"19","community_name":"CHUWITAYU","wave":"","longitude":"-77.8081816592896","latitude":"-1.90693453873664","country":"Ecuador"},
{"id_community":"20","community_name":"COLONIA LA LIBERTAD","wave":"3","longitude":"-77.39199297","latitude":"-2.42337802","country":"Ecuador"},
{"id_community":"21","community_name":"COPATAZA","wave":"2","longitude":"-77.44737212","latitude":"-2.08848135","country":"Ecuador"},
{"id_community":"22","community_name":"CUENCA","wave":"","longitude":"-78.99833413","latitude":"-2.88868149","country":"Ecuador"},
{"id_community":"23","community_name":"EL VERGEL","wave":"","longitude":"-77.798625606202","latitude":"-1.69486330542227","country":"Ecuador"},
{"id_community":"24","community_name":"GUARANI","wave":"2","longitude":"-77.2436114","latitude":"-2.23268453","country":"Ecuador"},
{"id_community":"25","community_name":"GUAYAQUIL","wave":"","longitude":"-79.94170284","latitude":"-2.14758605","country":"Ecuador"},
{"id_community":"26","community_name":"IKIAM","wave":"2","longitude":"-77.13787101","latitude":"-2.69764001","country":"Ecuador"},
{"id_community":"27","community_name":"INIAK","wave":"","longitude":"-76.6150971753429","latitude":"-2.27778237989576","country":"Ecuador"},
{"id_community":"28","community_name":"INIAYUA","wave":"","longitude":"-77.476414626016","latitude":"-2.14953536209382","country":"Ecuador"},
{"id_community":"29","community_name":"IPIAK","wave":"3","longitude":"-77.14579007","latitude":"-2.46783011","country":"Ecuador"},
{"id_community":"30","community_name":"ISHPINGO","wave":"1","longitude":"-76.7619759371209","latitude":"-2.56938108216932","country":"Ecuador"},
{"id_community":"31","community_name":"ITAK","wave":"3","longitude":"-77.19756257","latitude":"-2.54545106000001","country":"Ecuador"},
{"id_community":"32","community_name":"IWIA","wave":"2","longitude":"-77.477686730086","latitude":"-2.09898064839204","country":"Ecuador"},
{"id_community":"33","community_name":"JIKIAMAT","wave":"3","longitude":"-77.1828338786697","latitude":"-2.56375974662308","country":"Ecuador"},
{"id_community":"34","community_name":"JUYUKAMENTSA","wave":"3","longitude":"-77.2436015509404","latitude":"-2.72119412155319","country":"Ecuador"},
{"id_community":"35","community_name":"KAASHAP","wave":"3","longitude":"-77.13021649","latitude":"-2.32470777000001","country":"Ecuador"},
{"id_community":"36","community_name":"KAIPTACH","wave":"3","longitude":"-77.1222136940418","latitude":"-2.63903517059668","country":"Ecuador"},
{"id_community":"37","community_name":"KAJEKAI","wave":"","longitude":"-77.7303203789547","latitude":"-1.97285220168765","country":"Ecuador"},
{"id_community":"38","community_name":"KANUS","wave":"","longitude":"-77.7355","latitude":"-2.48916666666667","country":"Ecuador"},
{"id_community":"39","community_name":"KAPAWARI","wave":"2","longitude":"-77.17530342","latitude":"-2.06630107","country":"Ecuador"},
{"id_community":"40","community_name":"KAPAWI","wave":"1","longitude":"-76.84185","latitude":"-2.54064999999997","country":"Ecuador"},
{"id_community":"41","community_name":"KAPIRNA","wave":"3","longitude":"-76.81431723","latitude":"-2.21959467999999","country":"Ecuador"},
{"id_community":"42","community_name":"KARAMA","wave":"3","longitude":"-77.55169496","latitude":"-2.042243","country":"Ecuador"},
{"id_community":"43","community_name":"KASUZENTSA","wave":"3","longitude":"-76.72609904","latitude":"-2.30532403000001","country":"Ecuador"},
{"id_community":"44","community_name":"KAWA","wave":"2","longitude":"-77.67043283","latitude":"-2.00235964000001","country":"Ecuador"},
{"id_community":"45","community_name":"KAYANTZA","wave":"","longitude":"-77.3596458629197","latitude":"-2.16969410757618","country":"Ecuador"},
{"id_community":"46","community_name":"KUAKASH","wave":"2","longitude":"-77.67144528","latitude":"-2.03447892","country":"Ecuador"},
{"id_community":"47","community_name":"KUMAY","wave":"1","longitude":"-77.70317112","latitude":"-2.00016894","country":"Ecuador"},
{"id_community":"48","community_name":"KUNKI","wave":"3","longitude":"-77.6199197032204","latitude":"-2.03145847500425","country":"Ecuador"},
{"id_community":"49","community_name":"KURINTSA (ACHUAR)","wave":"3","longitude":"-77.3683471017231","latitude":"-2.40095112374534","country":"Ecuador"},
{"id_community":"50","community_name":"KURINUA","wave":"","longitude":"-77.371027915105","latitude":"-2.6880543924441","country":"Ecuador"},
{"id_community":"51","community_name":"KUSERVANTS","wave":"2","longitude":"-76.9293024289112","latitude":"-2.61180973690133","country":"Ecuador"},
{"id_community":"52","community_name":"KUSUTKAU","wave":"2","longitude":"-76.8611135195205","latitude":"-2.53117104796497","country":"Ecuador"},
{"id_community":"53","community_name":"MACAS","wave":"","longitude":"-78.1215367399999","latitude":"-2.31136608","country":"Ecuador"},
{"id_community":"54","community_name":"MAKI","wave":"","longitude":"-77.1597537643122","latitude":"-2.75532806993159","country":"Ecuador"},
{"id_community":"55","community_name":"MAKUMA","wave":"","longitude":"-77.7003333333333","latitude":"-2.753","country":"Ecuador"},
{"id_community":"56","community_name":"MAKUSAR","wave":"","longitude":"-76.6296053863595","latitude":"-2.24776042131674","country":"Ecuador"},
{"id_community":"57","community_name":"MAMAYAK","wave":"","longitude":"-77.7055836667998","latitude":"-2.03434142121718","country":"Ecuador"},
{"id_community":"58","community_name":"MASHIANTENTZA CENTRO SHUAR","wave":"","longitude":"-77.4070501413976","latitude":"-2.36471442213674","country":"Ecuador"},
{"id_community":"59","community_name":"MASHIENT","wave":"","longitude":"-77.2611940327785","latitude":"-2.1910341946851","country":"Ecuador"},
{"id_community":"60","community_name":"MASHUIM","wave":"2","longitude":"-76.9161980358354","latitude":"-2.61617382710233","country":"Ecuador"},
{"id_community":"61","community_name":"MASHUMAR ENTSA","wave":"","longitude":"-77.2192804448438","latitude":"-2.76265062894994","country":"Ecuador"},
{"id_community":"62","community_name":"MASHURASH","wave":"","longitude":"-77.207474708832","latitude":"-2.26004792143706","country":"Ecuador"},
{"id_community":"63","community_name":"MONTALVO","wave":"","longitude":"-76.964085","latitude":"-2.0614","country":"Ecuador"},
{"id_community":"64","community_name":"MORETE PLAYA","wave":"","longitude":"-76.8647439284813","latitude":"-2.18573356532196","country":"Ecuador"},
{"id_community":"65","community_name":"MUITSENTSA","wave":"2","longitude":"-77.06005954","latitude":"-2.35485588","country":"Ecuador"},
{"id_community":"66","community_name":"MURUNTS","wave":"","longitude":"-77.2407472047014","latitude":"-2.53880337807884","country":"Ecuador"},
{"id_community":"67","community_name":"MUSHUCLLACTA","wave":"2","longitude":"-77.84526701","latitude":"-1.71900404","country":"Ecuador"},
{"id_community":"68","community_name":"NAMAK","wave":"","longitude":"-77.5058228139738","latitude":"-1.9813391707262","country":"Ecuador"},
{"id_community":"69","community_name":"NANKI","wave":"3","longitude":"-77.61254037","latitude":"-2.00738056999999","country":"Ecuador"},
{"id_community":"70","community_name":"NAPURAK","wave":"1","longitude":"-76.9924","latitude":"-2.52038333299992","country":"Ecuador"},
{"id_community":"71","community_name":"NASES","wave":"2","longitude":"-77.17227294","latitude":"-2.55857385000001","country":"Ecuador"},
{"id_community":"72","community_name":"NUEVO SASAIM","wave":"2","longitude":"-77.33200117","latitude":"-2.26116775","country":"Ecuador"},
{"id_community":"73","community_name":"NUMBAIMI","wave":"3","longitude":"-77.22248448","latitude":"-2.24400302999999","country":"Ecuador"},
{"id_community":"74","community_name":"NUNKUI (NUNKA)","wave":"","longitude":"-77.4056118119677","latitude":"-2.6621148360154","country":"Ecuador"},
{"id_community":"75","community_name":"PAKINTS","wave":"3","longitude":"-77.27474598","latitude":"-2.32275100999999","country":"Ecuador"},
{"id_community":"76","community_name":"PALORA","wave":"","longitude":"-77.968159","latitude":"-1.698946","country":"Ecuador"},
{"id_community":"77","community_name":"PAMPANTS","wave":"","longitude":"-77.4413543640552","latitude":"-2.55411502355448","country":"Ecuador"},
{"id_community":"78","community_name":"PANKI","wave":"3","longitude":"-77.65756602","latitude":"-1.99913001","country":"Ecuador"},
{"id_community":"79","community_name":"PATUKMAI","wave":"3","longitude":"-77.20165897","latitude":"-2.47977046","country":"Ecuador"},
{"id_community":"80","community_name":"PEAS","wave":"","longitude":"-77.8763500770022","latitude":"-1.74421608228234","country":"Ecuador"},
{"id_community":"81","community_name":"PRECOOPERATIVA SUCRE","wave":"","longitude":"-77.805687764502","latitude":"-1.74802148241646","country":"Ecuador"},
{"id_community":"82","community_name":"PUKUAN","wave":"3","longitude":"-77.15527645","latitude":"-2.10142644","country":"Ecuador"},
{"id_community":"83","community_name":"PUMPUENTSA","wave":"2","longitude":"-77.33268731","latitude":"-2.47424285000001","country":"Ecuador"},
{"id_community":"84","community_name":"PUTUIM","wave":"3","longitude":"-77.12031185","latitude":"-2.54783218999999","country":"Ecuador"},
{"id_community":"85","community_name":"PUTUNTS","wave":"","longitude":"-77.4206123575302","latitude":"-2.59745925978759","country":"Ecuador"},
{"id_community":"86","community_name":"PUYO CENTRO","wave":"","longitude":"-78.0023017","latitude":"-1.4877774","country":"Ecuador"},
{"id_community":"87","community_name":"QUILLOALPA","wave":"","longitude":"-76.988123605509","latitude":"-1.40544582021898","country":"Ecuador"},
{"id_community":"88","community_name":"QUITO","wave":"","longitude":"-78.513152","latitude":"-0.214902","country":"Ecuador"},
{"id_community":"89","community_name":"SAAPAP ENTSA","wave":"","longitude":"-77.3493808961617","latitude":"-2.82621764754001","country":"Ecuador"},
{"id_community":"90","community_name":"SAN ANTONIO","wave":"","longitude":"-77.4201901261654","latitude":"-2.42143671000297","country":"Ecuador"},
{"id_community":"91","community_name":"SAN CARLOS","wave":"","longitude":"-77.4958827443228","latitude":"-2.09225933757938","country":"Ecuador"},
{"id_community":"92","community_name":"SAN FRANCISCO","wave":"","longitude":"-77.5846054648341","latitude":"-2.07903298784921","country":"Ecuador"},
{"id_community":"93","community_name":"SAN JOSE","wave":"2","longitude":"-77.6194832942003","latitude":"-2.02273029460225","country":"Ecuador"},
{"id_community":"94","community_name":"SAN JUAN","wave":"3","longitude":"-77.5137683850559","latitude":"-2.08529279421702","country":"Ecuador"},
{"id_community":"95","community_name":"SAN LUIS","wave":"3","longitude":"-77.45250662","latitude":"-2.08620382","country":"Ecuador"},
{"id_community":"96","community_name":"SANTA ROSA","wave":"3","longitude":"-77.58093674","latitude":"-2.06181675","country":"Ecuador"},
{"id_community":"97","community_name":"SANTIAG","wave":"","longitude":"-77.397535","latitude":"-2.115111","country":"Ecuador"},
{"id_community":"98","community_name":"SANTO DOMINGO DE LOS COLORADOS","wave":"","longitude":"-79.17987316","latitude":"-0.25784701","country":"Ecuador"},
{"id_community":"99","community_name":"SANTO TOMAS","wave":"","longitude":"-77.0082332281618","latitude":"-2.05572281962303","country":"Ecuador"},
{"id_community":"100","community_name":"SAUM","wave":"2","longitude":"-77.08806214","latitude":"-2.69377177","country":"Ecuador"},
{"id_community":"101","community_name":"SAWASTIAB (SAN SEBASTIAN)","wave":"3","longitude":"-77.15913104","latitude":"-2.64180497","country":"Ecuador"},
{"id_community":"102","community_name":"SHAIMI","wave":"","longitude":"-77.5052945897652","latitude":"-1.91639723005705","country":"Ecuador"},
{"id_community":"103","community_name":"SHAKAP","wave":"3","longitude":"-77.72763857","latitude":"-1.98022663999999","country":"Ecuador"},
{"id_community":"104","community_name":"SHARAMENTZA","wave":"1","longitude":"-76.99683333","latitude":"-2.45953333299997","country":"Ecuador"},
{"id_community":"105","community_name":"SHAUK","wave":"3","longitude":"-77.64005003","latitude":"-1.97801598999999","country":"Ecuador"},
{"id_community":"106","community_name":"SHELL CENTRO","wave":"","longitude":"-78.0652722","latitude":"-1.4978294","country":"Ecuador"},
{"id_community":"107","community_name":"SHUIM MAMUS","wave":"2","longitude":"-77.03978154","latitude":"-2.46379991999999","country":"Ecuador"},
{"id_community":"108","community_name":"SITUCH","wave":"","longitude":"-77.2836441879197","latitude":"-2.79478835447533","country":"Ecuador"},
{"id_community":"109","community_name":"SUCUA RURAL","wave":"","longitude":"-78.1647105869222","latitude":"-2.45098312448008","country":"Ecuador"},
{"id_community":"110","community_name":"SURIK NUEVO","wave":"3","longitude":"-77.08823397","latitude":"-2.59891402000001","country":"Ecuador"},
{"id_community":"111","community_name":"SURITIAK","wave":"3","longitude":"-77.19096752","latitude":"-2.56236288999999","country":"Ecuador"},
{"id_community":"112","community_name":"SUWA","wave":"2","longitude":"-76.92687638","latitude":"-2.54345758999999","country":"Ecuador"},
{"id_community":"113","community_name":"TAISHA","wave":"","longitude":"-77.5049536098591","latitude":"-2.36862613774187","country":"Ecuador"},
{"id_community":"114","community_name":"TARIMIAT","wave":"3","longitude":"-77.56149047","latitude":"-2.06541259000001","country":"Ecuador"},
{"id_community":"115","community_name":"TASHAP","wave":"3","longitude":"-77.879335","latitude":"-1.72374618","country":"Ecuador"},
{"id_community":"116","community_name":"TEQUERICA SURAKA","wave":"","longitude":"-76.5234274213898","latitude":"-1.96745202060887","country":"Ecuador"},
{"id_community":"117","community_name":"TERESA MAMA","wave":"","longitude":"-77.2163126175169","latitude":"-1.90931847819147","country":"Ecuador"},
{"id_community":"118","community_name":"TINCHI","wave":"","longitude":"-77.5103326617316","latitude":"-2.10039201423052","country":"Ecuador"},
{"id_community":"119","community_name":"TINKIAS","wave":"3","longitude":"-76.63657679","latitude":"-2.46843201","country":"Ecuador"},
{"id_community":"120","community_name":"TRES MARIAS","wave":"","longitude":"-77.5468832402496","latitude":"-2.09611676363012","country":"Ecuador"},
{"id_community":"121","community_name":"TSEKUNTSA","wave":"2","longitude":"-76.9469891166981","latitude":"-2.4019939780152","country":"Ecuador"},
{"id_community":"122","community_name":"TSEMPUNTSA","wave":"1","longitude":"-77.12018333","latitude":"-2.30246666699998","country":"Ecuador"},
{"id_community":"123","community_name":"TSUNKINTZA","wave":"3","longitude":"-77.11055053","latitude":"-2.66289249999999","country":"Ecuador"},
{"id_community":"124","community_name":"TUKUPI","wave":"","longitude":"-77.4808178099149","latitude":"-2.78899256791074","country":"Ecuador"},
{"id_community":"125","community_name":"TUNA","wave":"3","longitude":"-77.65054794","latitude":"-2.04620638","country":"Ecuador"},
{"id_community":"126","community_name":"TUNIKRAM","wave":"2","longitude":"-76.81569354","latitude":"-2.63365021999999","country":"Ecuador"},
{"id_community":"127","community_name":"TUUTINENTZA RURAL","wave":"","longitude":"-77.468087104506","latitude":"-2.53781706165682","country":"Ecuador"},
{"id_community":"128","community_name":"UNTPASTATS","wave":"","longitude":"-77.7669020612646","latitude":"-1.96977765302413","country":"Ecuador"},
{"id_community":"129","community_name":"UWIJINT","wave":"","longitude":"-77.7699968918439","latitude":"-1.79956660495435","country":"Ecuador"},
{"id_community":"130","community_name":"VILLAFLORA","wave":"","longitude":"-77.7484358541518","latitude":"-1.73829361232619","country":"Ecuador"},
{"id_community":"131","community_name":"WACHANCE COCHA (FIDEL HUALINO)","wave":"","longitude":"-77.7646753338179","latitude":"-1.73158220716394","country":"Ecuador"},
{"id_community":"132","community_name":"WACHIRPAS","wave":"1","longitude":"-76.80619047","latitude":"-2.57320446","country":"Ecuador"},
{"id_community":"133","community_name":"WAMPUIK","wave":"2","longitude":"-77.02301488","latitude":"-2.61508615000001","country":"Ecuador"},
{"id_community":"134","community_name":"WARINTZA","wave":"","longitude":"-78.2559566602231","latitude":"-3.16998805035218","country":"Ecuador"},
{"id_community":"135","community_name":"WASAKENTSA","wave":"2","longitude":"-77.21918444","latitude":"-2.54522516","country":"Ecuador"},
{"id_community":"136","community_name":"WASHINTSA","wave":"3","longitude":"-77.56321597","latitude":"-2.03907799","country":"Ecuador"},
{"id_community":"137","community_name":"WASURAK","wave":"","longitude":"-77.3530425627855","latitude":"-2.57800659370112","country":"Ecuador"},
{"id_community":"138","community_name":"WAWAIM","wave":"","longitude":"-77.982848780857","latitude":"-2.85471385649706","country":"Ecuador"},
{"id_community":"139","community_name":"WAYUTSENTSA","wave":"1","longitude":"-76.91728333","latitude":"-2.44161666699995","country":"Ecuador"},
{"id_community":"140","community_name":"WICHIM","wave":"","longitude":"-77.3706880329431","latitude":"-2.74494684706925","country":"Ecuador"},
{"id_community":"141","community_name":"WISUI (ACHUAR)","wave":"3","longitude":"-77.49253339","latitude":"-2.08792848000001","country":"Ecuador"},
{"id_community":"142","community_name":"YAAS-NUNKA","wave":"3","longitude":"-77.3985104336099","latitude":"-2.65393978735167","country":"Ecuador"},
{"id_community":"143","community_name":"YAMANUNKA","wave":"","longitude":"-77.4291197833919","latitude":"-2.6368430865403","country":"Ecuador"},
{"id_community":"144","community_name":"YAMARAN","wave":"","longitude":"-77.5374085350008","latitude":"-2.22017735185584","country":"Ecuador"},
{"id_community":"145","community_name":"YAMPIS","wave":"","longitude":"-77.5231599671675","latitude":"-1.96905388364201","country":"Ecuador"},
{"id_community":"146","community_name":"YAMPUNA NORTE","wave":"","longitude":"-77.5189081017511","latitude":"-2.12233431546469","country":"Ecuador"},
{"id_community":"147","community_name":"YANKUNTS","wave":"2","longitude":"-77.31107994","latitude":"-2.68203257999999","country":"Ecuador"},
{"id_community":"148","community_name":"YANTANA","wave":"","longitude":"-77.8341020633795","latitude":"-1.77391800598405","country":"Ecuador"},
{"id_community":"149","community_name":"YUTSUNTSA","wave":"","longitude":"-76.4717906414676","latitude":"-2.34674459940634","country":"Ecuador"},
{"id_community":"150","community_name":"YUU","wave":"","longitude":"-78.2732466490143","latitude":"-2.65545907503501","country":"Ecuador"},
{"id_community":"151","community_name":"CHURUS","wave":"","longitude":"-76.43374","latitude":"-2.832521","country":"Peru"},
{"id_community":"152","community_name":"WAMPINTSA","wave":"","longitude":"-76.95695","latitude":"-3.01432","country":"Peru"},
{"id_community":"153","community_name":"PUERTO RUBINA","wave":"","longitude":"-76.55816","latitude":"-3.356862","country":"Peru"},
{"id_community":"154","community_name":"3 DE NOVIEMBRE","wave":"","longitude":"-77.40671","latitude":"-2.464421","country":"Ecuador"},
{"id_community":"155","community_name":"YANKUNTICH","wave":"","longitude":"-77.25984553","latitude":"-2.92429398999997","country":"Peru"},
{"id_community":"156","community_name":"MICHANTSA","wave":"3","longitude":"-77.105031","latitude":"-2.8809709","country":"Peru"},
{"id_community":"157","community_name":"ACAPULCO","wave":"","longitude":"-77,141675","latitude":"-4,72229833299997","country":"Peru"},
{"id_community":"158","community_name":"NUEVA ALIANZA","wave":"","longitude":"-76,5661104","latitude":"-4,67293927","country":"Peru"},
{"id_community":"159","community_name":"ANTENA 04","wave":"","longitude":"-76,952376667","latitude":"-4,80098666699996","country":"Peru"},
{"id_community":"160","community_name":"ANTIOQUIA","wave":"","longitude":"-76,00515","latitude":"-2,71353166699993","country":"Peru"},
{"id_community":"161","community_name":"BAGAZAN","wave":"","longitude":"-76,914966667","latitude":"-4,82285166599996","country":"Peru"},
{"id_community":"162","community_name":"BANCAL","wave":"","longitude":"-77,13003699","latitude":"-4,51590703","country":"Peru"},   
{"id_community":"163","community_name":"BARRANCA","wave":"","longitude":"-76,6893913","latitude":"-4,82560847","country":"Peru"},   
{"id_community":"164","community_name":"BELEN","wave":"","longitude":"-76,63094176","latitude":"-3,22061065","country":"Peru"},
{"id_community":"165","community_name":"BETANIA","wave":"","longitude":"-76.555528333","latitude":"-3.396818333","country":"Peru"},
{"id_community":"166","community_name":"BOBONAZA","wave":"","longitude":"-76.628765030","latitude":"-2.600373520","country":"Peru"},
{"id_community":"167","community_name":"CALIFORNIA","wave":"","longitude":"-76.568762773","latitude":"-4.624162285","country":"Peru"},
{"id_community":"168","community_name":"CAMPO VERDE","wave":"","longitude":"-76.438910240","latitude":"-4.722924980","country":"Peru"},
{"id_community":"169","community_name":"CHAMBIRA","wave":"","longitude":"-76.769451667","latitude":"-3.800358333","country":"Peru"},
{"id_community":"170","community_name":"CHUINTAR","wave":"","longitude":"-76.916156667","latitude":"-3.462681667","country":"Peru"},
{"id_community":"171","community_name":"CHURUS","wave":"","longitude":"-76.433736361","latitude":"-2.832521346","country":"Peru"},
{"id_community":"172","community_name":"COPACABANA","wave":"","longitude":"-77.018688333","latitude":"-4.758931667","country":"Peru"},
{"id_community":"173","community_name":"COPAL","wave":"","longitude":"-77.250270000","latitude":"-5.012831667","country":"Peru"},
{"id_community":"174","community_name":"COPALES UNIDOS","wave":"","longitude":"-77.225833333","latitude":"-4.390368333","country":"Peru"},
{"id_community":"175","community_name":"DOS HERMANOS","wave":"","longitude":"-77.096021667","latitude":"-4.618796667","country":"Peru"},
{"id_community":"176","community_name":"ESTRELLA","wave":"","longitude":"-76.768321667","latitude":"-4.819038333","country":"Peru"},
{"id_community":"177","community_name":"HUAMBRA COCHA","wave":"","longitude":"-76.856450160","latitude":"-4.390949760","country":"Peru"},
{"id_community":"178","community_name":"INDUSTRIAL","wave":"","longitude":"-76.398580000","latitude":"-4.922390000","country":"Peru"},
{"id_community":"179","community_name":"IQUITOS","wave":"","longitude":"-73.244366210","latitude":"-3.749345980","country":"Peru"},
{"id_community":"180","community_name":"ISLANDIA","wave":"","longitude":"-76.481403333","latitude":"-4.922781667","country":"Peru"},
{"id_community":"181","community_name":"JERUSALEN","wave":"","longitude":"-76.191284990","latitude":"-2.836724570","country":"Peru"},
{"id_community":"182","community_name":"JOSE OLAYA","wave":"","longitude":"-76.194238333","latitude":"-2.561031667","country":"Peru"},
{"id_community":"183","community_name":"KUNAM ENTSA","wave":"","longitude":"-76.629900000","latitude":"-3.246248333","country":"Peru"},
{"id_community":"184","community_name":"KURANDA COCHA","wave":"","longitude":"-76.622049324","latitude":"-4.003298626","country":"Peru"},
{"id_community":"185","community_name":"LIMON COCHA (MAMUS)","wave":"","longitude":"-76.761523333","latitude":"-3.729420000","country":"Peru"},  
{"id_community":"201","community_name":"SABALOYACU","wave":"1","longitude":"-76.332415","latitude":"-3.304851667","country":"Peru"},
{"id_community":"202","community_name":"LOBOYACU","wave":"1","longitude":"-76.35774833","latitude":"-3.667255","country":"Peru"},
{"id_community":"203","community_name":"ANDOAS VIEJO","wave":"1","longitude":"-76.40270502","latitude":"-2.904678143","country":"Peru"},
{"id_community":"204","community_name":"NUEVA VIDA","wave":"1","longitude":"-76.414565","latitude":"-3.227693333","country":"Peru"},
{"id_community":"205","community_name":"ALIANZA TOPAL","wave":"1","longitude":"-76.42389","latitude":"-2.854226667","country":"Peru"},
{"id_community":"206","community_name":"NARANJAL PASTAZA","wave":"1","longitude":"-76.43349","latitude":"-3.159315","country":"Peru"},
{"id_community":"207","community_name":"HUAGRAMONA","wave":"1","longitude":"-76.43741","latitude":"-3.074725","country":"Peru"},
{"id_community":"208","community_name":"NUEVO ANDOAS","wave":"1","longitude":"-76.46219753","latitude":"-2.805113386","country":"Peru"},
{"id_community":"209","community_name":"TITIYACU","wave":"1","longitude":"-76.49537","latitude":"-2.775276667","country":"Peru"},
{"id_community":"210","community_name":"SAN FERNANDO","wave":"1","longitude":"-76.54558333","latitude":"-4.205305","country":"Peru"},
{"id_community":"211","community_name":"AIMENTZA","wave":"1","longitude":"-76.69973167","latitude":"-2.713335","country":"Peru"},
{"id_community":"212","community_name":"SIWIN","wave":"2","longitude":"-76.462368","latitude":"-3.2070017","country":"Peru"},
{"id_community":"213","community_name":"NUEVO PORVENIR","wave":"2","longitude":"-76.472392","latitude":"-2.801865","country":"Peru"},
{"id_community":"214","community_name":"NUEVA ALIANZA CAPAHUARI YACU","wave":"2","longitude":"-76.39188","latitude":"-2.8703801","country":"Peru"},
{"id_community":"215","community_name":"LOS JARDINES","wave":"2","longitude":"-76.451378","latitude":"-2.81767","country":"Peru"},
{"id_community":"216","community_name":"BOLOGNESI","wave":"2","longitude":"-76.424575","latitude":"-3.6095751","country":"Peru"},
{"id_community":"217","community_name":"WARARAY","wave":"2","longitude":"-76.647997","latitude":"-2.7257018","country":"Peru"},
{"id_community":"218","community_name":"NUEVO EDEN","wave":"2","longitude":"-76.616008","latitude":"-3.32075","country":"Peru"},
{"id_community":"219","community_name":"NUEVO UCAYALI","wave":"2","longitude":"-76.67612","latitude":"-3.9941749","country":"Peru"},
{"id_community":"220","community_name":"NUEVO SHUNGO","wave":"2","longitude":"-76.672526","latitude":"-3.9974513","country":"Peru"},
{"id_community":"221","community_name":"WASUM","wave":"3","longitude":"-77.120109","latitude":"-2.9571308","country":"Peru"},
{"id_community":"222","community_name":"PURANCHIN","wave":"3","longitude":"-77.036347","latitude":"-2.9756434","country":"Peru"},
{"id_community":"223","community_name":"CHECHERTA","wave":"3","longitude":"-76.959495","latitude":"-3.00974","country":"Peru"},
{"id_community":"224","community_name":"CAPAHUARI URKO","wave":"3","longitude":"-76.379926","latitude":"-2.9196661","country":"Peru"},
{"id_community":"225","community_name":"BRILLANTE DE ANDOAS","wave":"2","longitude":"-76.481263","latitude":"-2.8124567","country":"Peru"},
{"id_community":"226","community_name":"YAMAKAY","wave":"3","longitude":"-77.146033","latitude":"-4.4586502","country":"Peru"},
{"id_community":"227","community_name":"VISTA ALEGRE","wave":"2","longitude":"-77.158328","latitude":"-4.4300021","country":"Peru"},
{"id_community":"228","community_name":"PUERTO AMERICA-2","wave":"3","longitude":"-77.062002","latitude":"-4.7302226","country":"Peru"},
{"id_community":"229","community_name":"SAN LORENZO","wave":"2","longitude":"-76.554549","latitude":"-4.8316021","country":"Peru"},
{"id_community":"230","community_name":"SAN ANTONIO","wave":"3","longitude":"-76.512868","latitude":"-4.9077745","country":"Peru"},
{"id_community":"231","community_name":"PUERTO INDUSTRIAL","wave":"3","longitude":"-76.397895","latitude":"-4.9225365","country":"Peru"},
{"id_community":"232","community_name":"ULLPAYACU","wave":"2","longitude":"-76.587755","latitude":"-4.6516164","country":"Peru"},
{"id_community":"233","community_name":"RECREO","wave":"3","longitude":"-76.5058","latitude":"-4.7288486","country":"Peru"},
{"id_community":"234","community_name":"MUSAKARUSHA","wave":"3","longitude":"-76.657621","latitude":"-4.4513045","country":"Peru"},
{"id_community":"235","community_name":"HORTENCIA COCHA","wave":"2","longitude":"-76.62797","latitude":"-4.0877135","country":"Peru"},
{"id_community":"236","community_name":"NUEVO NAZARENO","wave":"3","longitude":"-76.635177","latitude":"-4.0763029","country":"Peru"},
{"id_community":"237","community_name":"NUEVO PROGRESO","wave":"2","longitude":"-76.652858","latitude":"-4.0720704","country":"Peru"},
{"id_community":"238","community_name":"NUEVA PURAHUA","wave":"3","longitude":"-76.659915","latitude":"-4.0322589","country":"Peru"},
{"id_community":"239","community_name":"PUERTO AMERICA-1","wave":"3","longitude":"-76.646049","latitude":"-4.0784546","country":"Peru"},
{"id_community":"240","community_name":"PUERTO PIJUAYAL","wave":"2","longitude":"-76.732401","latitude":"-3.9193394","country":"Peru"},
{"id_community":"241","community_name":"NUEVO PIJUAYAL","wave":"3","longitude":"-76.731185","latitude":"-3.9142437","country":"Peru"},
{"id_community":"242","community_name":"SUNGACHI","wave":"2","longitude":"-76.434046","latitude":"-3.7576413","country":"Peru"},
{"id_community":"243","community_name":"NUEVA ESPERANZA","wave":"3","longitude":"-76.465337","latitude":"-3.9134496","country":"Peru"},
{"id_community":"244","community_name":"PUERTO ALEGRE (KUSHILLA)","wave":"3","longitude":"-76.518085","latitude":"-3.8079328","country":"Peru"},
{"id_community":"245","community_name":"ACHUAR ANATICO","wave":"3","longitude":"-76.440778","latitude":"-3.5024595","country":"Peru"},
{"id_community":"246","community_name":"UNION ANTONIETA","wave":"3","longitude":"-76.463097","latitude":"-3.5194783","country":"Peru"},
{"id_community":"247","community_name":"ALIANZA CRISTIANA","wave":"2","longitude":"-76.432206","latitude":"-3.4758799","country":"Peru"},
{"id_community":"248","community_name":"SANTA CRUZ","wave":"3","longitude":"-76.489189","latitude":"-3.5022373","country":"Peru"},
{"id_community":"249","community_name":"COCHA PURAHUA","wave":"3","longitude":"-76.504516","latitude":"-3.480533","country":"Peru"},
{"id_community":"250","community_name":"PUERTO GALILEA","wave":"3","longitude":"-76.520129","latitude":"-3.4184506","country":"Peru"},
{"id_community":"251","community_name":"BETHEL","wave":"3","longitude":"-76.54473","latitude":"-3.3799081","country":"Peru"},
{"id_community":"252","community_name":"SOPLIN","wave":"2","longitude":"-76.335182","latitude":"-3.4084343","country":"Peru"},
{"id_community":"253","community_name":"PAÃ‘AYACU","wave":"2","longitude":"-76.381756","latitude":"-2.9513945","country":"Peru"},
{"id_community":"254","community_name":"NUEVO EDEN-2","wave":"3","longitude":"-76.628186","latitude":"-4.0879667","country":"Peru"},
{"id_community":"255","community_name":"IHUAQUIPOSA","wave":"3","longitude":"-76.742851","latitude":"-3.8989913","country":"Peru"},
{"id_community":"256","community_name":"BUENA VISTA","wave":"3","longitude":"-76.442389","latitude":"-3.0564227","country":"Peru"},
{"id_community":"257","community_name":"MICHANTSA","wave":"3","longitude":"-77.105031","latitude":"-2.8809709","country":"Peru"},
{"id_community":"258","community_name":"NUEVA ALIANZA","wave":"3","longitude":"-76.56596","latitude":"-4.6715542","country":"Peru"},
{"id_community":"259","community_name":"PUERTO NUEVO","wave":"3","longitude":"-76.44323","latitude":"-4.8190725","country":"Peru"},
{"id_community":"260","community_name":"SANTA ANA","wave":"3","longitude":"-76.413581","latitude":"-4.8728723","country":"Peru"},
{"id_community":"261","community_name":"LA CURVA","wave":"3","longitude":"-76.45177","latitude":"-4.7962737","country":"Peru"}  
]
